Sub Num,Sub Name,Sub ID,Latitude,Longitude,Nominal kV(max)
2000002,Sub2000002,Sub2000002,,,230
3477941,Lion Mountain,3477941,48.1,-114.25,230
25000019,Greenbry,25000019,44.38,-123.11,500
25000149,Springville,25000149,45.81,-122.72,230
25000910,Silicon,25000910,47.21,-119.23,230
25000916,DrJohnson,25000916,42.97,-123.27,115
25000918,Parish Gap,25000918,44.73,-122.83,230
25052026,Port LeBrun,25052026,45.45,-122.29,13.8
25052714,Copper River,25052714,32.78,-109.27,345
30004005,Linneman,30004005,45.5,-122.42,230
30004006,Blue Lake,30004006,45.59,-122.49,230
30004008,Monitor,30004008,45.18,-122.67,230
30004092,Mattawa,30004092,46.79,-119.96,230
30004101,Hew,30004101,46.52,-119.54,230
30004107,Marcola,30004107,44.19,-122.84,230
30004129,Baldi,30004129,47.21,-121.69,230
30004132,Klahanie,30004132,47.57,-122.12,230
30004170,Tarzana,30004170,34.1,-118.46,500
30004262,Idaho-Nevada,30004262,42,-115.43,345
30004265,Peacock,30004265,35.17,-113.65,345
30004298,Horseranch,30004298,48,-122.11,230
30004351,Terrell Creek,30004351,48.83,-122.53,13.8
30004496,Novelty,30004496,47.69,-121.85,230
30004598,Simpson,30004598,47.29,-122.33,13.8
30004761,Headwork,30004761,47.69,-119.77,13.8
30004852,Clearwater,30004852,46.4,-116.97,12
30004888,I.E. Paper,30004888,47.65,-117.26,13.8
30050288,Toluca,30050288,34.23,-118.45,500
32000215,Coid,32000215,44.02,-121.21,69
32000241,Farmrirr,32000241,45.65,-121.53,69
32000255,Sulphur,32000255,46.33,-119.94,230
32000395,Vas,32000395,49.33,-119.4,500
32008816,Jones Canyon,32008816,45.65,-120.14,230
32008859,Ft. Sage,32008859,40.76,-120.67,345
32008880,Lakeside,32008880,47.92,-114.27,230
32008902,Sierra,32008902,46.94,-123.87,115
32008906,Spring Creek,32008906,45.86,-120.5,230
32008920,Wind Ridge,32008920,47.02,-120.19,230
32008950,Rock Creek,32008950,45.91,-120.61,500
32008953,Three Pk,32008953,37.96,-113.13,345
32008989,Ranch Vista,32008989,34.11,-117.56,500
52000001,Macho Springs,20 mi. NE Deming,32.44,-107.56,345
52000004,Cedar Mountain,Found Mountain,35.34,-111.92,500
52000046,Dugas,Found road,34.38,-112.01,500
52000083,Suncrest,Sub52000083,32.93,-116.52,500
52000084,C94,No idea,32.84,-116.07,500
52000095,Top of the World,Found Wind Farm,42.92,-105.77,0.6
52000096,Schnebly,Found Coulee,46.94,-119.99,230
52000097,Poison Spring,Found Road,46.95,-120.23,230
52000098,Linden,No idea,45.75,-120.61,230
52000116,Juniper,No idea,45.9,-120.27,230
52000118,Central Ferry,Found Sub,46.6,-117.81,500
52000119,Phalen Gulcn,Found Sub,46.57,-117.83,230
52000120,Dodge Junction,Found Junction Town,46.52,-117.82,230
52000131,Knight,Found on WECC map,46.1,-120.86,500
52000141,Evergreen,No idea,44.71,-122.65,13.8
52000149,Enid Rd.,Found Rd.,44.12,-123.17,13.8
52000171,Norpac,No idea,46.16,-123.01,230
52000181,SAC,No idea,50.27,-122.28,360
52000263,Clover,No idea,39.69,-112.06,345
52000264,Limber,No idea,40.2,-112.13,345
52000269,Utah/Nevada,No idea,37.26,-114.07,345
52000373,Heartland,No idea,54.06,-113.37,500
64000007,Miller,64000007,45.89,-120.46,230
68050059,Willow,68050059,32.3,-109.49,345
337405781,Ninetieth South,3337405781,40.59,-111.92,345
337405809,Aberdeen,3337405809,46.98,-123.85,230
337405851,Adair,3337405851,44.7,-123.22,115
337405870,Addy,3337405870,48.33,-117.83,230
337405875,Adelaide,3337405875,42.69,-113.67,345
337405876,Adelaide Tap,3337405876,42.71,-113.67,345
337405877,Adelanto,3337405877,34.55,-117.44,500
337405901,AES Alamitos,3337405901,33.77,-118.1,20
337405912,AES Huntington Beach,3337405912,33.65,-117.98,13.8
337405921,AES Redondo Beach,3337405921,33.85,-118.39,20
337405935,Afton Generating Station,3337405935,32.11,-106.85,345
337406029,Albany,3337406029,44.62,-123.13,230
337406039,Albeni Falls,3337406039,48.18,-117,13.8
337406065,Alcoa,3337406065,45.65,-122.73,230
337406074,Alder,3337406074,46.8,-122.31,13.8
337406092,Alfalfa,3337406092,46.3,-120.22,230
337406167,Allston,3337406167,46.11,-123.03,500
337406231,Alvey,3337406231,44,-123.01,500
337406252,American Creek Capacitor Station,3337406252,49.44,-121.45,500
337406293,Amrad,3337406293,32.52,-106.14,345
337406299,Anaconda Mill Creek,3337406299,46.11,-112.88,230
337406372,Antelope Valley Solar Ranch,3337406372,34.69,-118.3,500
337406388,Apache,3337406388,32.06,-109.89,20
337406394,Apex (MIR),3337406394,36.42,-114.96,500
337406462,Arden,3337406462,36.01,-115.21,21
337406484,Rattlesnake Road Wind Project,3337406484,45.7,-120.25,0.6
337406487,Arlington Valley,3337406487,33.34,-112.89,500
337406525,Arroyo,3337406525,32.33,-106.71,345
337406532,Artesia,3337406532,32.85,-104.39,345
337406571,Ashe,3337406571,46.48,-119.33,500
337406603,Ashton Creek,3337406603,50.55,-118.96,500
337406696,Ault,3337406696,40.6,-104.8,345
337406763,B-A,3337406763,35.35,-106.48,345
337406992,Battle River,3337406992,52.47,-112.14,21
337407067,Beacon (Spokane),3337407067,47.68,-117.34,230
337407116,Beaver,3337407116,46.16,-123.14,230
337407118,Beaver,3337407118,45.28,-123.82,500
337407126,Beaver Creek,3337407126,40.25,-103.6,345
337407193,Bell,3337407193,47.75,-117.37,500
337407237,Bellingham Division,3337407237,48.8,-122.42,230
337407277,Ben Lomond,3337407277,41.34,-112.05,345
337407282,Bend,3337407282,44.07,-121.32,4.2
337407283,Benewah,3337407283,47.35,-117.03,230
337407288,Hot Springs Windfarm,3337407288,43.13,-115.69,18
337407300,Benton,3337407300,46.46,-119.27,230
337407368,Bethel (PGE),3337407368,44.97,-122.91,230
337407401,Bicknell,3337407401,31.92,-111.06,345
337407419,Big Cliff,3337407419,44.75,-122.28,14.4
337407423,Big Creek 1,3337407423,37.2,-119.24,13.8
337407430,Big Eddy,3337407430,45.61,-121.11,500
337407440,Big Horn Wind (PPM),3337407440,45.83,-120.74,230
337407509,Biomass One L/P,3337407509,42.41,-122.76,13.8
337407604,Blackwater,3337407604,34.3,-103.17,345
337407718,Blythe 2,3337407718,33.61,-114.68,16
337407727,Boardman (PGE),3337407727,45.69,-119.81,500
337407771,Bonanza,3337407771,40.09,-109.29,345
337407786,Bonneville,3337407786,45.64,-121.94,230
337407809,Borah,3337407809,42.7,-113.24,345
337407819,Bordertown,3337407819,39.66,-120,345
337407825,Bothell,3337407825,47.86,-122.18,230
337407839,Boulder Park,3337407839,47.7,-117.15,230
337407846,Boundary,3337407846,48.98,-117.36,230
337407863,Bowie Power Station,3337407863,32.36,-109.49,345
337407876,Bowmont,3337407876,43.44,-116.56,500
337407878,Box Canyon (PEND),3337407878,48.78,-117.42,13.8
337407954,Brawley - SCE,3337407954,32.97,-115.53,13.8
337407956,Brazeau Hydro,3337407956,52.91,-115.38,13.8
337407989,Bridge River Terminal,3337407989,50.72,-122.23,360
337408132,Browning,3337408132,33.36,-111.6,500
337408135,Brownlee,3337408135,44.84,-116.9,13.8
337408209,Buckley,3337408209,45.23,-120.9,500
337408315,Burns,3337408315,43.68,-118.77,500
337408422,Cabinet Gorge,3337408422,48.09,-116.06,230
337408462,Calapooya,3337408462,44.38,-123.01,230
337408489,Caliente,3337408489,31.83,-106.25,345
337408507,Calpeak Vaca Dixon No. 1,3337408507,38.4,-121.92,500
337408525,Camas,3337408525,45.58,-122.38,69
337408558,Camp Williams,3337408558,40.47,-111.95,345
337408606,Canby 2,3337408606,41.44,-120.88,230
337408670,Cape Cockburn Cable Terminal,3337408670,49.67,-124.18,500
337408690,Captain Jack,3337408690,42.08,-121.39,500
337408757,Carlton,3337408757,45.28,-123.15,230
337408764,Carmen Smith,3337408764,44.34,-122,11.5
337408830,Carver,3337408830,45.4,-122.53,230
337408843,Cascade,3337408843,37.53,-107.79,230
337408867,Castaic,3337408867,34.59,-118.66,18
337408945,Cedar Falls (SCL),3337408945,47.43,-121.78,6.6
337408977,Celilo Dc Converter Station,3337408977,45.6,-121.11,500
337409045,Centralia,3337409045,46.73,-122.95,69
337409051,Centralia Switching Station,3337409051,46.73,-122.84,500
337409113,Chandler,3337409113,46.21,-119.77,115
337409130,Chapmans Capacitor Station,3337409130,49.61,-121.37,500
337409143,Charles Lenzie,3337409143,36.38,-114.92,500
337409200,Cheekye,3337409200,49.8,-123.1,500
337409201,Chehalis,3337409201,46.62,-122.92,230
337409204,Chelan,3337409204,47.81,-119.99,11
337409209,Chemawa,3337409209,45.01,-123,230
337409220,Chenoweth,3337409220,45.64,-121.2,230
337409223,Cherokee (PSCO),3337409223,39.81,-104.97,22
337409315,Chief Joseph,3337409315,47.99,-119.65,500
337409332,Chiloquin,3337409332,42.59,-121.84,230
337409370,Cholla,3337409370,34.94,-110.3,500
337409381,Christopher,3337409381,47.29,-122.24,230
337409518,Clark (NEVP),3337409518,36.09,-115.05,13.8
337409539,Clatsop,3337409539,46.14,-123.84,230
337409552,Clayburn,3337409552,49.06,-122.24,500
337409579,Clearwater 2,3337409579,43.25,-122.34,12
337409756,Cold Springs,3337409756,45.89,-119.23,230
337409867,Columbia,3337409867,47.29,-120.08,230
337409874,Columbia Falls,3337409874,48.36,-114.14,230
337409906,Comanche,3337409906,38.27,-104.62,345
337409919,Combine Hills Turbine Ranch,3337409919,45.93,-118.63,34.5
337409954,Con Kelley,3337409954,48.39,-114.13,230
337409971,Condon Windpower LLC,3337409971,45.28,-120.19,0.6
337410014,Contra Costa,3337410014,38.02,-121.76,18
337410062,Copco # 2,3337410062,41.98,-122.36,6.6
337410112,Coronado,3337410112,34.58,-109.28,500
337410170,Cougar,3337410170,44.13,-122.24,6.9
337410194,Cove,3337410194,42.53,-111.8,230
337410205,Covington,3337410205,47.35,-122.12,500
337410218,Cowlitz,3337410218,46.11,-122.94,230
337410221,Cowlitz Falls,3337410221,46.46,-122.1,230
337410230,Coyote Creek,3337410230,41.17,-116.35,345
337410234,Coyote Springs,3337410234,45.85,-119.67,500
337410259,Craig (TSGT),3337410259,40.47,-107.59,345
337410269,Cranbrook,3337410269,49.5,-115.54,500
337410290,Creekside Cap. Stn.,3337410290,50.38,-122.63,500
337410309,Creston,3337410309,47.51,-122.27,230
337410341,Crockett Cogen,3337410341,38.05,-122.22,18
337410409,Crystal River,3337410409,36.42,-114.84,500
337410456,Currant Creek,3337410456,39.82,-111.9,345
337410467,Cushman 1,3337410467,47.42,-123.22,13.2
337410468,Cushman 2,3337410468,47.37,-123.16,12.6
337410469,Cusick,3337410469,48.33,-117.37,230
337410472,Custer,3337410472,48.9,-122.62,500
337410535,Dalreed,3337410535,45.76,-120,230
337410554,Daniels Park,3337410554,39.49,-104.91,345
337410647,De Moss,3337410647,45.52,-120.69,0.6
337410784,Delridge,3337410784,47.55,-122.37,230
337410791,Delta Energy Center (CPN),3337410791,38.02,-121.85,24
337410804,Luna Energy Facility,3337410804,32.3,-107.78,345
337410854,Desert Basin,3337410854,32.89,-111.78,18
337410875,Detroit,3337410875,44.72,-122.25,230
337410879,Devers,3337410879,33.94,-116.58,500
337410898,Dexter,3337410898,43.92,-122.8,13.8
337410919,Diablo,3337410919,48.71,-121.13,345
337410921,Diablo Canyon,3337410921,35.22,-120.85,500
337411001,Dixonville,3337411001,43.21,-123.24,500
337411112,Douglas,3337411112,47.53,-120.29,230
337411162,Driscoll,3337411162,46.15,-123.41,230
337411184,Dry Gulch,3337411184,46.4,-117.21,230
337411257,Dunsmuir,3337411257,49.39,-124.63,500
337411301,Duwamish,3337411301,47.51,-122.31,230
337411304,Dworshak,3337411304,46.51,-116.3,500
337411372,Eagle Point,3337411372,42.55,-122.57,2.4
337411468,East Omak,3337411468,48.43,-119.5,230
337411487,East Shore,3337411487,37.63,-122.12,18
337411547,Eastpine,3337411547,47.61,-122.3,230
337411565,Echo Lake,3337411565,47.49,-121.87,500
337411677,El Segundo,3337411677,33.91,-118.42,18
337411689,Eldorado,3337411689,39.94,-105.26,500
337411699,Electron,3337411699,47.03,-122.22,2.3
337411728,Elk Hills Power Project,3337411728,35.28,-119.47,18
337411753,Ellerslie,3337411753,53.43,-113.46,500
337411844,Encina,3337411844,33.14,-117.33,24
337411848,Encogen NW,3337411848,48.75,-122.48,13.8
337411894,Enterprise,3337411894,45.4,-117.3,69
337411929,Escalante,3337411929,35.42,-108.09,17.6
337411938,Escondido Peaker,3337411938,33.14,-117.17,18
337411966,Etiwanda,3337411966,34.09,-117.53,18
337412085,Fairmount,3337412085,47.98,-122.88,230
337412090,Fairview,3337412090,43.21,-124.07,230
337412100,Falcon,3337412100,40.79,-116.5,345
337412135,Faraday,3337412135,45.25,-122.3,13.8
337412257,Finley,3337412257,46.16,-119.15,13.8
337412272,Fish Creek,3337412272,43.29,-122.47,6.9
337412313,Flagstaff,3337412313,35.18,-111.39,345
337412334,Flathead,3337412334,48.29,-114.24,230
337412524,Fort St. Vrain,3337412524,40.24,-104.87,22
337412544,Foster,3337412544,44.41,-122.67,4.2
337412567,Four Corners (AZPS),3337412567,36.69,-108.49,500
337412618,Franklin,3337412618,46.23,-119.04,230
337412666,Fredonia (PSPL),3337412666,48.56,-122.33,230
337412707,Frenchman Hills (USBR),3337412707,46.95,-119.58,230
337413143,Fry,3337413143,44.59,-123.04,230
337413273,Gardner (NEVP),3337413273,36.66,-114.64,24
337413294,Garrison,3337413294,46.51,-112.89,500
337413317,Gates Peaker,3337413317,36.14,-120.13,500
337413318,Gateway,3337413318,31.36,-110.96,345
337413367,Genesee,3337413367,53.35,-114.31,500
337413448,Gila River Power Station,3337413448,32.99,-112.68,500
337413461,Dry Fork Station,3337413461,44.29,-105.5,19
337413488,Glade,3337413488,46.33,-119.12,115
337413510,Glen Canyon,3337413510,36.93,-111.49,345
337413522,Glenannan,3337413522,54.05,-124.67,500
337413533,Glendale,3337413533,39.52,-119.73,230
337413634,Gonder,3337413634,39.35,-114.85,345
337413640,Goodnoe,3337413640,45.79,-120.56,230
337413667,Gordon M. Shrum,3337413667,56.01,-122.2,500
337413681,Gorge (SCL),3337413681,48.7,-121.21,230
337413691,Goshen,3337413691,43.31,-112.12,345
337413733,Gramercy,3337413733,33.95,-118.31,500
337413746,Grand Coulee,3337413746,47.95,-119,500
337413764,Grand Junction (UTE),3337413764,39.05,-108.41,345
337413829,Grants Pass,3337413829,42.45,-123.28,230
337413854,Grays Harbor Energy Facility,3337413854,47,-123.48,230
337413909,Green Peter,3337413909,44.45,-122.55,13.8
337413922,Green Springs,3337413922,42.12,-122.51,4.2
337413928,Green Valley,3337413928,43.42,-123.36,230
337413956,Greenlee,3337413956,32.97,-109.17,345
337414013,Gresham,3337414013,45.49,-122.46,230
337414031,Griffith Energy Project,3337414031,35.01,-114.14,18
337414038,Grizzly Power,3337414038,44.48,-121.02,500
337414065,Guadalupe,3337414065,35.1,-105.02,345
337414242,Hanford,3337414242,46.67,-119.57,500
337414255,Hanna,3337414255,42.94,-123.42,230
337414273,Happy Valley,3337414273,43.55,-116.51,230
337414330,Harquahala Valley,3337414330,33.48,-113.11,500
337414354,Harrison,3337414354,39.74,-104.94,115
337414364,Harry Allen,3337414364,36.43,-114.9,500
337414395,Harvalum,3337414395,45.73,-120.71,230
337414409,Haskill,3337414409,48.11,-114.64,230
337414411,Hassayampa,3337414411,33.35,-112.85,500
337414421,Hat Rock,3337414421,45.92,-119.11,230
337414433,Hatwai,3337414433,46.47,-116.91,500
337414471,Hayden,3337414471,40.49,-107.19,22
337414479,Haynes Generating Station,3337414479,33.76,-118.1,18
337414608,Hermiston Power Project,3337414608,45.79,-119.31,500
337414625,Hesperus,3337414625,37.18,-108.02,345
337414631,Hi Desert,3337414631,34.14,-116.18,20
337414645,Hidalgo,3337414645,32.4,-108.6,345
337414722,Hills Creek,3337414722,43.71,-122.42,6.9
337414741,Hilltop,3337414741,41.51,-120.63,345
337414882,Hoover AZ,3337414882,36.01,-114.74,16.5
337414883,Hoover NV,3337414883,36.02,-114.74,16.5
337414906,Hopkins Ridge,3337414906,46.46,-117.86,0.7
337414923,Horse Heaven,3337414923,45.93,-119.63,230
337414947,Hot Springs,3337414947,47.58,-114.63,500
337415022,Humboldt,3337415022,41.23,-115.93,345
337415035,Hungry Horse,3337415035,48.34,-114.02,230
337415041,Hunter Plant,3337415041,39.18,-111.03,345
337415054,Huntington,3337415054,39.38,-111.09,345
337415096,Hyder,3337415096,33.02,-113.33,500
337415125,Ice Harbor,3337415125,46.25,-118.88,13.8
337415166,Imperial Valley (Drew),3337415166,32.72,-115.71,500
337415231,Ingledow,3337415231,49.16,-122.86,500
337415240,Inland Empire Energy,3337415240,33.74,-117.17,500
337415252,Intalco,3337415252,48.85,-122.7,230
337415260,Intermountain Generating,3337415260,39.5,-112.58,345
337415306,Iron Gate,3337415306,41.93,-122.44,6.6
337415342,Island Cogeneration Project,3337415342,49.96,-125.35,21
337415400,J.C. Boyle,3337415400,42.09,-122.08,230
337415440,Jackson Hydroelectric #2157,3337415440,47.97,-121.69,13.8
337415584,John Day Ph,3337415584,45.71,-120.69,500
337415612,Johnston,3337415612,42.84,-105.78,22
337415619,Jojoba,3337415619,33.23,-112.62,500
337415765,Kayenta,3337415765,36.77,-110.25,345
337415779,Keeler,3337415779,45.55,-122.89,500
337415785,Keephills,3337415785,53.45,-114.45,500
337415804,Kelly Lake,3337415804,51.01,-121.7,500
337415837,Kennedy Capacitor Station,3337415837,55.08,-122.8,500
337415904,Kettle Falls,3337415904,48.62,-118.11,13.8
337416029,Kinport,3337416029,42.89,-112.56,345
337416058,Kitsap,3337416058,47.53,-122.7,230
337416063,Kittitas Valley Wind Power Project,3337416063,47.06,-120.41,230
337416080,Klondike Wind Farm,3337416080,45.59,-120.52,230
337416112,Koma Kulshan Associates,3337416112,48.54,-121.75,34.5
337416143,Kwoiek Creek,3337416143,50.05,-121.55,360
337416147,Kyrene,3337416147,33.35,-111.94,500
337416168,La Grande,3337416168,46.82,-122.3,13.8
337416186,La Pine,3337416186,43.61,-121.47,230
337416196,La Rosita,3337416196,32.6,-115.66,21
337416343,Lake Side Power Plant,3337416343,40.33,-111.76,345
337416345,Lake Siskiyou,3337416345,41.27,-122.3,69
337416353,Lake View,3337416353,47.96,-116.46,230
337416402,Lamar,3337416402,38.06,-102.5,230
337416431,Lancaster,3337416431,47.81,-116.83,230
337416446,Lane,3337416446,31.72,-106.3,500
337416457,Langdon,3337416457,50.94,-113.76,500
337416477,Laramie River,3337416477,42.11,-104.89,345
337416493,Larson,3337416493,47.19,-119.28,230
337416601,Leaning Juniper Wind,3337416601,45.67,-120.25,0.6
337416659,Lemolo 1,3337416659,43.36,-122.25,12
337416660,Lemolo 2,3337416660,43.31,-122.3,11.5
337416735,Lexington,3337416735,46.18,-122.91,230
337416751,Libby - PACIF,3337416751,48.39,-115.3,230
337416752,Libby - USCEPD,3337416752,48.39,-115.31,230
337416759,Liberty,3337416759,33.41,-112.5,345
337416825,Linde Wilmington,3337416825,33.79,-118.16,500
337416873,Little Falls (WWPC),3337416873,47.83,-117.92,4
337416875,Little Goose,3337416875,46.58,-118.05,500
337416876,Little Goose Ph,3337416876,46.58,-118.03,500
337416974,Lolo,3337416974,46.36,-116.92,230
337417000,Lone Pine,3337417000,42.35,-122.81,230
337417015,Long Lake,3337417015,47.84,-117.84,4
337417029,Longview,3337417029,46.14,-122.99,230
337417033,Mint Farm Energy Center LLC,3337417033,46.14,-122.99,230
337417034,Longview Fibre Co.,3337417034,46.11,-122.94,13.8
337417045,Lookout Point,3337417045,43.91,-122.75,13.8
337417085,Los Medanos Energy Center,3337417085,38.03,-121.87,18
337417088,Lost Creek,3337417088,42.67,-122.68,13.8
337417152,Lower Baker,3337417152,48.54,-121.73,13.8
337417159,Lower Granite,3337417159,46.65,-117.42,500
337417166,Lower Monumental,3337417166,46.55,-118.54,500
337417212,Lugo,3337417212,34.37,-117.37,500
337417302,Mabton,3337417302,46.2,-119.97,230
337417420,Malaspina,3337417420,49.66,-123.96,500
337417425,Malin,3337417425,42.01,-121.32,500
337417460,Manchief Power Station,3337417460,40.22,-103.68,345
337417462,Mandalay,3337417462,34.21,-119.25,13.8
337417523,Maple Valley,3337417523,47.47,-122.19,500
337417544,March Point Cogeneration Compa,3337417544,48.47,-122.57,230
337417576,Marion,3337417576,44.8,-122.7,500
337417588,Marketplace,3337417588,35.82,-115.01,500
337417639,Martin Creek,3337417639,43.74,-123.12,230
337417690,Massachusetts,3337417690,47.59,-122.34,230
337417718,Maupin,3337417718,45.2,-121.03,230
337417739,Mayfield,3337417739,46.5,-122.59,230
337417809,McCullough,3337417809,35.8,-115.01,500
337417812,McDonald,3337417812,47.15,-119.22,230
337417852,McKinley,3337417852,35.59,-108.82,345
337417859,Mcleese Capacitor Station,3337417859,52.42,-122.28,500
337417861,Mcloughlin,3337417861,45.34,-122.56,500
337417877,McNary,3337417877,45.92,-119.31,500
337417895,Mead,3337417895,35.93,-114.84,500
337417953,Meeker,3337417953,40.01,-107.97,345
337417997,Merchant,3337417997,35.79,-114.99,13.8
337418010,Meridian,3337418010,49.31,-122.81,500
337418030,Merwin,3337418030,45.96,-122.55,13.2
337418040,Mesquite Power,3337418040,33.35,-112.86,500
337418053,Metcalf Energy Center,3337418053,37.22,-121.74,500
337418091,Mica,3337418091,52.05,-118.5,500
337418158,Midpoint,3337418158,42.83,-114.42,500
337418164,Midway,3337418164,38.56,-104.69,345
337418181,Midway Peaker (MIDWAY),3337418181,35.4,-119.45,500
337418183,Midway Sunset Cogen,3337418183,35.23,-119.63,13.8
337418186,Miguel,3337418186,32.68,-116.98,500
337418351,Mira Loma,3337418351,39.43,-119.7,345
337418352,Mira Loma,3337418352,34.01,-117.56,500
337418445,Moenkopi,3337418445,35.83,-111.45,500
337418451,Mohave,3337418451,35.15,-114.6,500
337418472,Mona,3337418472,39.81,-111.91,345
337418498,Monroe,3337418498,39.72,-104.94,500
337418515,Monroe Street,3337418515,47.66,-117.43,13.8
337418594,Montrose,3337418594,38.44,-107.95,345
337418699,Morro Bay,3337418699,35.37,-120.86,18
337418705,Morrow Power Program,3337418705,45.85,-119.66,13.8
337418713,Moscow,3337418713,46.74,-116.94,230
337418723,Moss Landing (DUENNO),3337418723,36.81,-121.78,500
337418728,Mossyrock,3337418728,46.53,-122.43,230
337418791,Moyie,3337418791,48.7,-116.15,115
337418854,Munro BPA System Control Center,3337418854,47.75,-117.38,230
337418877,Murray,3337418877,48.15,-122.08,230
337418950,N. Gila (APS),3337418950,32.75,-114.49,500
337418960,N. Lewiston,3337418960,46.43,-117.03,230
337419028,Naniwa,3337419028,39.56,-119.52,345
337419089,Naughton,3337419089,41.76,-110.6,24
337419093,Navajo (SRP),3337419093,36.9,-111.39,500
337419297,Newman,3337419297,31.98,-106.43,345
337419352,Nicola,3337419352,50.18,-120.38,500
337419363,Nile Creek Terminal,3337419363,49.4,-124.63,500
337419371,Nine Canyon Wind Project,3337419371,46.12,-119.04,0.7
337419372,Nine Mile,3337419372,47.78,-117.55,13.8
337419389,Nixon,3337419389,38.63,-104.71,21
337419516,North Fork,3337419516,45.24,-122.28,13.8
337419547,North Loop,3337419547,32.4,-111.13,345
337419562,North Mountain,3337419562,48.21,-121.93,230
337419610,North Valmy,3337419610,40.82,-117.23,345
337419617,North West,3337419617,36.32,-115.33,500
337419633,Northeast (WWPC),3337419633,47.73,-117.27,13.8
337419682,Norton,3337419682,35.76,-106.11,345
337419718,Noxon Rapids,3337419718,47.96,-115.74,230
337419754,O'Brien,3337419754,47.4,-122.24,230
337419852,Ocotillo Energy Facility,3337419852,33.78,-116.53,500
337419881,Ojo,3337419881,36.11,-106.16,345
337419925,Olinda,3337419925,40.38,-122.38,500
337419946,Olympia,3337419946,47,-122.95,500
337419977,Opal Springs Hydro,3337419977,44.52,-121.21,69
337420044,Ormond Beach,3337420044,34.13,-119.17,26
337420092,Ostrander,3337420092,45.36,-122.41,500
337420100,Otay Mesa,3337420100,32.57,-116.94,16
337420132,Outlook,3337420132,46.38,-120.08,230
337420266,Palo Verde,3337420266,33.39,-112.86,500
337420273,Pamona Heights,3337420273,46.62,-120.47,230
337420295,Panoche (Los Banos Peaker),3337420295,37.05,-121.02,500
337420356,Parkdale,3337420356,45.53,-121.56,230
337420435,Paul,3337420435,46.75,-122.87,500
337420447,Pawnee,3337420447,40.22,-103.68,345
337420473,Peace Canyon,3337420473,55.98,-121.99,500
337420488,Pearl,3337420488,47.27,-122.52,500
337420504,PEC Headworks,3337420504,46.98,-119.26,115
337420530,Pelton,3337420530,44.69,-121.23,230
337420531,Pelton Re-Regulation,3337420531,44.72,-121.25,6.9
337420609,Perkins,3337420609,33.67,-112.44,500
337420757,Pilot Butte,3337420757,43.2,-108.76,230
337420765,Pinal West,3337420765,33,-112.2,500
337420777,Pine Creek,3337420777,47.54,-116.22,230
337420820,Pinnacle Peak (LC),3337420820,33.7,-111.94,345
337420821,Pinnacle Peak APS,3337420821,33.7,-111.94,500
337420825,Pinto,3337420825,37.87,-109.31,345
337420869,Pittsburg (MIR),3337420869,38.04,-121.9,20
337420995,Plummel,3337420995,47.34,-116.87,4.2
337421061,Ponderosa,3337421061,39.56,-104.76,500
337421090,Port Angeles,3337421090,48.1,-123.42,230
337421123,Port Of Washington,3337421123,46.14,-122.94,230
337421167,Post Falls,3337421167,47.71,-116.96,2.4
337421174,Potholes,3337421174,47.11,-119.53,230
337421185,Potrero,3337421185,37.76,-122.39,180.5
337421263,Preacher Canyon,3337421263,34.28,-111.16,345
337421271,Presidente Juarez (Rosarito),3337421271,32.37,-117.07,21
337421284,Priest Rapids,3337421284,46.65,-119.91,230
337421332,Prospect 1,3337421332,42.72,-122.52,6.6
337421334,Prospect 3,3337421334,42.71,-122.37,6.6
337421462,Quincy Chute,3337421462,47.16,-119.89,115
337421603,Rattlesnake Switchyard,3337421603,46.92,-113.97,230
337421613,Raver,3337421613,47.34,-121.93,500
337421614,Rawhide,3337421614,40.86,-105.02,24
337421661,Red Butte,3337421661,37.42,-113.64,345
337421699,Redhawk 1 & 2,3337421699,33.33,-112.84,500
337421788,Reston,3337421788,43.18,-123.56,230
337421795,Revelstoke,3337421795,50.98,-118.18,500
337421895,Rifle Generating Station,3337421895,39.52,-107.73,345
337421907,Rinaldi,3337421907,34.28,-118.48,500
337421916,Ringold,3337421916,46.51,-119.13,115
337421945,Rio Puerco,3337421945,35.33,-106.86,345
337421977,River Mill,3337421977,45.3,-122.35,11
337421994,Rivergate,3337421994,45.61,-122.77,230
337422131,Rock Island Powerhouse,3337422131,47.35,-120.09,13.8
337422176,Rocky Ford,3337422176,38.05,-103.72,230
337422182,Rocky Mountain Energy Center,3337422182,40.09,-104.6,23
337422187,Rocky Reach,3337422187,47.53,-120.29,345
337422206,Rogue,3337422206,42.48,-124.4,230
337422261,Rosedale,3337422261,35.39,-119.07,360
337422285,J.D. Ross,3337422285,45.66,-122.66,345
337422288,Ross Dam,3337422288,48.73,-121.07,230
337422305,Round Butte,3337422305,44.61,-121.28,500
337422310,Round Mountain,3337422310,40.81,-121.94,500
337422319,Roundup,3337422319,45.64,-118.75,230
337422351,Roza,3337422351,46.62,-120.48,6.6
337422359,Rudd,3337422359,33.41,-112.32,500
337422524,Sacajawea,3337422524,46.24,-118.89,500
337422525,Sacheen,3337422525,48.18,-117.28,230
337422544,Saguaro,3337422544,36.06,-115.02,500
337422637,Salem,3337422637,44.93,-123.09,230
337422702,Sammamish,3337422702,47.69,-122.15,230
337422714,Mountainview Power,3337422714,34.08,-117.24,18
337422748,San Juan 345,3337422748,36.8,-108.44,345
337422768,San Onofre,3337422768,33.37,-117.55,22
337422782,Sand Dunes,3337422782,47.15,-119.28,230
337422795,Sandia,3337422795,37.89,-116.79,345
337422856,Santan,3337422856,33.33,-111.75,18
337422861,Santiam,3337422861,44.77,-122.67,500
337422900,Satsop,3337422900,46.97,-123.46,500
337422942,Scattergood,3337422942,33.93,-118.43,24
337422960,Schultz,3337422960,47.12,-120.51,500
337422973,Scooteney,3337422973,46.66,-119.01,115
337423057,Sedro Woolley,3337423057,48.51,-122.2,230
337423078,Selkirk,3337423078,49.05,-117.5,500
337423081,Selle,3337423081,48.36,-116.53,500
337423120,Serrano,3337423120,33.83,-117.79,500
337423126,Seven Mile,3337423126,49.03,-117.49,13.8
337423199,Shawnee,3337423199,46.88,-117.29,230
337423214,Sheerness,3337423214,51.44,-111.79,19
337423244,Shelton,3337423244,47.23,-123.12,230
337423288,Sherwood,3337423288,45.37,-122.84,230
337423302,Shiprock,3337423302,36.8,-108.48,345
337423346,Sickler,3337423346,47.54,-120.28,500
337423360,Sidney W.,3337423360,41.16,-102.99,230
337423364,Sifton,3337423364,45.65,-122.5,230
337423371,Sigurd,3337423371,38.84,-111.99,345
337423386,Silver Creek,3337423386,46.52,-122.59,230
337423393,Silver King,3337423393,33.34,-111.04,500
337423407,Silverhawk,3337423407,36.41,-114.97,500
337423471,Skeena,3337423471,54.42,-128.7,500
337423493,Slate Creek,3337423493,41.03,-122.44,4.2
337423497,Slatt,3337423497,45.7,-120.15,500
337423505,Slide Creek,3337423505,43.31,-122.5,6.9
337423526,Smith Falls Hydroelectric Proj,3337423526,48.78,-116.58,13.8
337423546,Smoky Hill,3337423546,39.63,-104.72,345
337423567,Sno-king,3337423567,47.81,-122.19,500
337423568,Snohomish,3337423568,47.92,-122.1,500
337423570,Snoqualmie,3337423570,47.54,-121.84,6.9
337423605,Soda Springs,3337423605,43.3,-122.54,6.9
337423666,South,3337423666,47.57,-122.33,230
337423685,South Bremerton,3337423685,47.56,-122.65,230
337423758,South Loop,3337423758,32,-110.97,345
337423789,South Rapid City,3337423789,44.05,-103.18,230
337423849,Southwest,3337423849,47.19,-122.49,230
337423876,Spanish Fork,3337423876,40.08,-111.61,345
337423936,Ross Park,3337423936,47.68,-117.39,13.8
337423955,Spring Creek - USBRCO,3337423955,40.63,-122.47,13.8
337423972,Springerville,3337423972,34.31,-109.16,345
337423974,Springfield,3337423974,44.04,-123,230
337424074,St. Johns,3337424074,45.6,-122.75,230
337424093,St. Marys,3337424093,45.51,-122.84,230
337424189,Stateline Wind Project - Washington,3337424189,46,-118.74,230
337424353,Stone Creek,3337424353,45.11,-121.82,6.9
337424487,Sumas Cogeneration Company LP,3337424487,48.99,-122.27,13.8
337424492,Summer Falls,3337424492,47.5,-119.29,13.8
337424493,Summer Lake,3337424493,43.01,-120.96,500
337424541,Sundance,3337424541,53.51,-114.55,25
337424647,Swift,3337424647,45.94,-122.64,230
337424710,Table Mt.,3337424710,39.56,-121.64,500
337424717,Tacoma,3337424717,47.26,-122.37,500
337424728,Taft,3337424728,47.45,-115.58,500
337424732,Tahkenitch,3337424732,43.74,-124.08,230
337424742,Talbot,3337424742,47.47,-122.21,230
337424776,Taos,3337424776,36.4,-105.63,345
337427366,Diamond Hill,3337427366,44.25,-123.05,230
337427717,Walla Walla,3337427717,46.07,-118.38,230
337427736,Wallula,3337427736,46.06,-118.85,230
337427914,Redmond,3337427914,44.27,-121.17,230
337428144,TAP372,3337428144,48.74,-117.66,230
337428264,East Side,3337428264,42.21,-121.76,4.2
337428270,Isthmus,3337428270,43.34,-124.19,230
337428276,Clearwater 1,3337428276,43.26,-122.37,6.9
337428363,Klamath Falls,3337428363,42.19,-121.82,18
337428808,Telkwa,3337428808,54.6,-126.92,500
337428845,Terminal,3337428845,40.76,-112.01,345
337428867,Tesla Peaker,3337428867,37.71,-121.57,500
337428880,Texada Island East Cable Terminal,3337428880,49.61,-124.27,500
337428881,Texada Island Reactor,3337428881,49.6,-124.3,500
337428882,Texada Island West Cable Terminal,3337428882,49.58,-124.33,500
337428918,The Dalles Ph,3337428918,45.62,-121.12,230
337429041,Tillamook,3337429041,45.46,-123.83,230
337429117,Toketee Falls,3337429117,43.27,-122.45,6.9
337429118,Toledo,3337429118,44.62,-123.92,230
337429179,Tortolita,3337429179,32.54,-111.29,500
337429215,Tracy,3337429215,37.8,-121.58,500
337429216,Tracy & Clark Mountain,3337429216,39.56,-119.52,345
337429314,Trojan,3337429314,46.04,-122.92,230
337429325,Troutdale,3337429325,45.56,-122.4,500
337429329,Troy,3337429329,48.44,-115.87,115
337429337,Trumble Creek,3337429337,48.4,-114.21,230
337429371,Tumble Creek,3337429371,44.73,-122.19,230
337429437,Twin Falls Hydro,3337429437,47.57,-121.89,13.8
337429530,Union Gap,3337429530,46.56,-120.49,230
337430120,Newberg,3337430120,45.34,-123,230
337430291,Bedding,3337430291,51.43,-113.83,18
337431361,Upper Baker,3337431361,48.65,-121.69,13.8
337431369,Upper Harrison Water Power Project,3337431369,49.75,-122.15,360
337431382,Upriver Dam,3337431382,47.68,-117.33,4.2
337431401,Usk,3337431401,48.29,-117.27,230
337431420,Vail Generating Station,3337431420,32.07,-110.81,345
337431453,Valley,3337431453,33.74,-117.16,500
337431469,Valley Generating Station,3337431469,34.24,-118.39,18
337431484,Valmont (PSCO),3337431484,40.02,-105.2,20
337431516,Vansycle Wind Energy Project,3337431516,45.85,-118.78,0.7
337431517,Vantage,3337431517,46.88,-119.94,500
337431618,Victorville,3337431618,34.57,-117.32,500
337431660,Vincent,3337431660,34.49,-118.12,500
337431796,Wahleach,3337431796,49.25,-121.66,360
337431797,Wahluke (GP),3337431797,46.73,-119.76,230
337431892,Wanapum,3337431892,46.88,-119.94,230
337431926,Warner,3337431926,41.5,-120.53,230
337432024,Waterton,3337432024,39.5,-105.07,345
337432057,Wauna,3337432057,46.15,-123.41,230
337432067,Wautoma,3337432067,46.51,-119.84,500
337432169,Wells (DOPD),3337432169,47.95,-119.87,230
337432181,Wendson,3337432181,44.01,-124.01,230
337432278,West Mesa,3337432278,35.11,-106.72,345
337432295,West Phoenix CC4 & CC5,3337432295,33.44,-112.15,16.5
337432316,West Side,3337432316,42.2,-121.78,2.3
337432406,Westwing,3337432406,33.71,-112.32,500
337432446,Wheeler,3337432446,47.18,-119.23,230
337432470,White Bluffs,3337432470,46.36,-119.36,230
337432474,White Creek Wind Project,3337432474,45.83,-120.36,230
337432490,White River (PSPL),3337432490,47.24,-122.21,230
337432511,Whitehorn,3337432511,48.89,-122.75,13.8
337432576,Wild Horse Project,3337432576,47.02,-120.19,230
337432623,Williston,3337432623,53.86,-122.66,500
337432634,Willow Creek Winds (Horn Butte Wind),3337432634,45.71,-120.03,0.6
337432671,Winchester,3337432671,32.19,-110.2,345
337432684,Windishar,3337432684,45.23,-123.17,230
337432924,Wyodak,3337432924,44.29,-105.39,22
337432946,Yale,3337432946,45.96,-122.34,13.2
337432965,Yavapai,3337432965,34.78,-112.23,500
337509719,MacKay,3337509719,57.04,-111.9,18
338155437,Snowflake,3338155437,34.51,-110.08,500
340395516,Luna,3340395516,32.28,-107.76,345
340406598,Biglow Canyon Wind,3340406598,45.65,-120.63,230
341135432,La Paloma,3341135432,35.3,-119.59,21
341135433,Sunrise Power Project,3341135433,35.21,-119.58,18
341135521,Tap,3341135521,36.45,-119.9,18
341136469,Maxwell,3341136469,39.24,-122.28,500
341136828,COB Energy Facility,3341136828,42.2,-121.78,500
341136829,Fall Creek,3341136829,41.98,-122.34,2.3
341136831,Copco 1,3341136831,41.98,-122.34,230
342617491,Dixon,3342617491,47.35,-114.32,230
342617588,Trout Creek,3342617588,47.82,-115.58,230
349559622,Midvalley,3349559622,40.7,-111.93,345
349559671,Oquirrh,3349559671,40.57,-112.03,345
349560051,Syracuse,3349560051,41.1,-112.04,345
349560650,North Valley Road,3349560650,39.57,-119.74,345
349560949,Raceway,3349560949,33.8,-112.27,500
349561019,Cedar Creek Wind Energy,3349561019,40.88,-104.32,34.5
349561028,Shepherds Flat Wind Farm,3349561028,45.77,-120.05,230
349561030,Marengo Wind Project,3349561030,46.34,-117.94,230
352749856,McKenzie,3352749856,44.09,-123.04,230
352749922,Creswell,3352749922,43.92,-123.03,115
352749932,Weyerhaeuser 3,3352749932,44.06,-122.94,13.8
352749973,Hurricane,3352749973,45.43,-117.3,230
352749979,LaGrande,3352749979,45.34,-118.03,230
352750116,River Road,3352750116,45.62,-122.7,18
352750170,Harorton,3352750170,45.62,-122.8,230
352750182,Murryhill,3352750182,45.44,-122.83,230
352750211,Sunset,3352750211,45.55,-122.92,230
352750245,Wren,3352750245,44.59,-123.51,230
352750301,Oak Grove,3352750301,45.18,-122.14,11
352750394,Golden Hills Wind Farm,3352750394,45.59,-120.7,230
352750395,Goodnoe Hills East,3352750395,45.83,-120.74,230
353097497,Frederickson (PSPL),3353097497,47.08,-122.36,230
353097595,Texaco,3353097595,48.5,-122.61,13.8
353097610,Tolt,3353097610,47.68,-121.88,13.8
353097684,Glenoma,3353097684,46.52,-122.14,230
353097789,Napavine,3353097789,46.63,-122.72,500
353097805,Berrydale,3353097805,47.35,-122.18,230
353097924,Sub353097924,Sub353097924,,,115
353097957,Tieton,3353097957,46.7,-120.71,13.8
353097966,Meyers Falls,3353097966,48.59,-118.05,11
353098003,Tap,3353098003,47.88,-117.44,230
353098038,Post Street,3353098038,47.66,-117.42,4.2
353098074,Tap,3353098074,47.42,-120.26,230
353098122,Sieler,3353098122,47.17,-119.16,230
353098139,Upper Coulee,3353098139,47.22,-119.16,230
353098165,Rathdrum Power LLC,3353098165,47.79,-116.92,230
353098171,Black,3353098171,46.95,-119.62,230
353098173,Ancient Lake,3353098173,47.12,-119.93,230
353098178,Mac Valley,3353098178,47.19,-119.44,230
353098186,McKenzic,3353098186,47.34,-120.1,230
353401443,Panoche Energy Center,3353401443,36.86,-120.46,13.8
356867398,NM Wind Energy Center,3356867398,34.59,-104.04,345
356868812,Windy Point/Tuolumne,3356868812,45.76,-120.71,230
356868817,Pebble Springs Wind Project,3356868817,45.71,-120.22,0.6
360295245,Vantage Wind Power Project,3360295245,46.95,-120.14,0.6
360295330,Gateway (PG),3360295330,38.02,-121.76,18
365669813,Populus,3365669813,42.42,-112.15,345
400380901,Canyon Rd-Tacoma (evi),4.00381E+12,47.1,-122.36,230
406510901,Echo Wind Farm (evi),4.06511E+12,45.71,-119.36,0.6
600110901,Langley (evi),6.00111E+12,43.9,-116.82,16.5
640590901,Blackhawk (evi),6.40591E+12,39.42,-119.65,345
